timestamp,phase,airspeed_kts,altitude_ft,pitch_deg,roll_deg,yaw_deg,engine_rpm_pct,egt_c,fuel_flow_kgph,oil_pressure_psi,oil_temp_c,vibration_g,ambient_temp_c,anomaly_type
2026-02-01 09:00:00,taxi_out,30.0,120.0,0.06,0.08,-0.0,55.22,381.1,452.03,55.32,65.07,0.796,14.93,none
2026-02-01 09:00:01,taxi_out,30.0,120.0,0.04,0.06,-0.08,55.13,381.65,452.12,55.28,65.07,0.795,14.91,none
2026-02-01 09:00:02,taxi_out,30.0,120.0,0.03,0.06,-0.1,55.24,382.39,452.73,55.33,65.1,0.794,14.9,none
2026-02-01 09:00:03,taxi_out,30.0,120.0,0.05,0.02,-0.12,55.19,382.37,453.27,55.35,65.11,0.792,14.89,none
2026-02-01 09:00:04,taxi_out,30.0,120.0,0.05,0.01,-0.12,55.19,382.49,453.06,55.37,65.12,0.79,14.92,none
2026-02-01 09:00:05,taxi_out,30.0,120.0,0.06,-0.03,-0.13,55.19,382.03,452.67,55.43,65.1,0.79,14.96,none
2026-02-01 09:00:06,taxi_out,30.0,120.0,0.05,-0.01,-0.09,55.21,382.53,452.82,55.39,65.11,0.79,14.96,none
2026-02-01 09:00:07,taxi_out,30.0,120.0,0.04,0.01,-0.05,55.25,382.19,454.13,55.39,65.14,0.792,14.91,none
2026-02-01 09:00:08,taxi_out,30.0,120.0,0.03,-0.03,-0.06,55.3,382.29,453.21,55.36,65.12,0.789,14.93,none
2026-02-01 09:00:09,taxi_out,30.0,120.0,0.04,-0.0,-0.02,55.28,381.96,452.11,55.3,65.16,0.784,14.91,none
2026-02-01 09:00:10,taxi_out,30.0,120.0,0.03,0.06,-0.01,55.28,381.8,452.31,55.32,65.16,0.782,14.92,none
2026-02-01 09:00:11,taxi_out,30.0,120.0,0.03,0.06,-0.01,55.3,381.56,452.42,55.42,65.15,0.782,14.89,none
2026-02-01 09:00:12,taxi_out,30.0,120.0,0.01,0.04,0.02,55.3,381.4,452.63,55.34,65.18,0.784,14.86,none
2026-02-01 09:00:13,taxi_out,30.0,120.0,0.03,0.08,0.09,55.36,381.27,454.95,55.28,65.14,0.784,14.87,none
2026-02-01 09:00:14,taxi_out,30.0,120.0,0.03,0.02,0.16,55.28,380.58,454.99,55.23,65.17,0.789,14.87,none
2026-02-01 09:00:15,taxi_out,30.0,120.0,0.03,0.03,0.05,55.36,380.47,454.32,55.24,65.13,0.786,14.8,none
2026-02-01 09:00:16,taxi_out,30.0,120.0,0.04,0.03,0.08,55.35,380.17,452.49,55.29,65.14,0.794,14.81,none
2026-02-01 09:00:17,taxi_out,30.0,120.0,0.05,0.07,0.14,55.41,379.96,451.91,55.15,65.2,0.804,14.82,none
2026-02-01 09:00:18,taxi_out,30.0,120.0,0.05,0.05,0.2,55.42,380.5,452.11,55.1,65.19,0.803,14.82,none
2026-02-01 09:00:19,taxi_out,30.0,120.0,0.03,0.06,0.21,55.29,380.91,450.85,55.04,65.16,0.808,14.81,none
2026-02-01 09:00:20,taxi_out,30.0,120.0,-0.01,0.05,0.18,55.29,381.0,450.34,54.98,65.12,0.803,14.81,none
2026-02-01 09:00:21,taxi_out,30.0,120.0,-0.03,0.02,0.15,55.24,380.46,452.68,55.03,65.14,0.808,14.84,none
2026-02-01 09:00:22,taxi_out,30.0,120.0,-0.03,-0.0,0.15,55.17,380.95,451.88,55.08,65.18,0.802,14.88,none
2026-02-01 09:00:23,taxi_out,30.0,120.0,-0.04,-0.04,0.13,55.22,381.12,451.56,55.07,65.17,0.809,14.91,none
2026-02-01 09:00:24,taxi_out,30.0,120.0,-0.05,-0.03,0.01,55.33,381.07,450.05,55.02,65.09,0.798,14.91,none
2026-02-01 09:00:25,taxi_out,30.0,120.0,-0.09,-0.07,0.02,55.39,380.65,449.28,55.03,65.05,0.8,14.91,none
2026-02-01 09:00:26,taxi_out,30.0,120.0,-0.09,-0.01,0.04,55.5,379.8,449.03,55.08,65.01,0.801,14.94,none
2026-02-01 09:00:27,taxi_out,30.0,120.0,-0.07,-0.03,0.05,55.49,379.34,448.31,55.06,64.99,0.806,14.94,none
2026-02-01 09:00:28,taxi_out,30.0,120.0,-0.08,-0.02,0.03,55.57,379.55,448.93,55.03,64.97,0.809,14.94,none
2026-02-01 09:00:29,taxi_out,30.0,120.0,-0.08,-0.01,0.07,55.71,379.38,449.74,55.06,64.95,0.814,14.9,none
2026-02-01 09:00:30,taxi_out,30.0,120.0,-0.08,0.02,0.08,55.76,379.63,449.38,55.01,64.98,0.821,14.88,none
2026-02-01 09:00:31,taxi_out,30.0,120.0,-0.05,-0.04,-0.0,55.66,378.9,449.56,55.07,64.98,0.825,14.9,none
2026-02-01 09:00:32,taxi_out,30.0,120.0,-0.04,-0.05,-0.01,55.67,379.47,448.79,55.02,65.01,0.826,14.94,none
2026-02-01 09:00:33,taxi_out,30.0,120.0,-0.04,-0.03,-0.05,55.65,379.82,450.77,55.05,65.0,0.828,14.91,none
2026-02-01 09:00:34,taxi_out,30.0,120.0,-0.04,-0.02,-0.08,55.75,380.0,453.28,55.08,65.0,0.832,14.95,none
2026-02-01 09:00:35,taxi_out,30.0,120.0,0.01,-0.07,-0.12,55.8,380.36,452.4,55.04,65.03,0.833,14.93,none
2026-02-01 09:00:36,taxi_out,30.0,120.0,-0.02,-0.08,-0.13,55.78,379.99,451.78,54.91,65.04,0.836,14.98,none
2026-02-01 09:00:37,taxi_out,30.0,120.0,0.01,-0.08,-0.14,55.74,380.03,450.71,54.94,65.02,0.832,15.0,none
2026-02-01 09:00:38,taxi_out,30.0,120.0,-0.01,-0.15,-0.13,55.66,380.22,450.4,55.02,65.02,0.833,15.02,none
2026-02-01 09:00:39,taxi_out,30.0,120.0,0.0,-0.11,-0.15,55.61,380.13,451.02,55.05,65.01,0.828,15.0,none
2026-02-01 09:00:40,taxi_out,30.0,120.0,-0.03,-0.11,-0.11,55.55,379.59,450.69,55.12,65.06,0.826,15.08,none
2026-02-01 09:00:41,taxi_out,30.0,120.0,-0.06,-0.12,-0.08,55.55,379.76,451.98,55.08,65.08,0.824,15.07,none
2026-02-01 09:00:42,taxi_out,30.0,120.0,-0.04,-0.15,-0.09,55.58,379.81,452.46,55.13,65.09,0.821,15.07,none
2026-02-01 09:00:43,taxi_out,30.0,120.0,0.02,-0.17,-0.1,55.6,379.39,452.73,55.07,65.07,0.818,15.07,none
2026-02-01 09:00:44,taxi_out,30.0,120.0,0.07,-0.17,-0.13,55.61,378.87,453.45,55.08,65.09,0.819,15.12,none
2026-02-01 09:00:45,taxi_out,30.0,120.0,0.08,-0.19,-0.13,55.62,378.45,455.33,55.13,65.11,0.828,15.1,none
2026-02-01 09:00:46,taxi_out,30.0,120.0,0.09,-0.16,-0.14,55.72,378.36,452.79,55.13,65.13,0.82,15.1,none
2026-02-01 09:00:47,taxi_out,30.0,120.0,0.06,-0.13,-0.16,55.72,378.15,452.99,55.07,65.1,0.822,15.12,none
2026-02-01 09:00:48,taxi_out,30.0,120.0,0.03,-0.15,-0.17,55.69,377.24,454.5,55.11,65.09,0.818,15.13,none
2026-02-01 09:00:49,taxi_out,30.0,120.0,0.02,-0.09,-0.13,55.64,377.28,455.58,55.13,65.13,0.816,15.15,none
2026-02-01 09:00:50,taxi_out,30.0,120.0,0.07,-0.05,-0.17,55.61,376.98,455.99,55.18,65.13,0.819,15.15,none
2026-02-01 09:00:51,taxi_out,30.0,120.0,0.07,-0.11,-0.07,55.63,377.81,456.08,55.11,65.17,0.812,15.12,none
2026-02-01 09:00:52,taxi_out,30.0,120.0,0.07,-0.08,-0.04,55.55,377.5,456.26,55.12,65.16,0.809,15.13,none
2026-02-01 09:00:53,taxi_out,30.0,120.0,0.07,-0.04,-0.01,55.57,377.52,456.4,55.18,65.15,0.811,15.15,none
2026-02-01 09:00:54,taxi_out,30.0,120.0,0.06,-0.02,-0.08,55.41,377.69,454.26,55.09,65.15,0.807,15.18,none
2026-02-01 09:00:55,taxi_out,30.0,120.0,0.05,-0.03,-0.11,55.37,377.3,456.44,55.12,65.18,0.797,15.18,none
2026-02-01 09:00:56,taxi_out,30.0,120.0,0.05,0.02,-0.02,55.49,377.86,455.18,55.12,65.14,0.79,15.13,none
2026-02-01 09:00:57,taxi_out,30.0,120.0,0.07,0.0,-0.05,55.45,377.79,454.64,55.17,65.06,0.783,15.15,none
2026-02-01 09:00:58,taxi_out,30.0,120.0,0.07,0.04,-0.02,55.52,377.58,453.45,55.12,65.08,0.782,15.16,none
2026-02-01 09:00:59,taxi_out,30.0,120.0,0.06,-0.04,-0.01,55.44,379.07,452.73,55.13,65.08,0.787,15.15,none
2026-02-01 09:01:00,taxi_out,30.0,120.0,0.02,-0.07,-0.01,55.43,378.29,452.33,55.23,65.05,0.791,15.15,none
2026-02-01 09:01:01,taxi_out,30.0,120.0,0.05,-0.02,0.05,55.49,379.54,453.42,55.27,65.06,0.782,15.15,none
2026-02-01 09:01:02,taxi_out,30.0,120.0,0.0,-0.02,0.07,55.49,379.66,456.12,55.34,65.06,0.789,15.16,none
2026-02-01 09:01:03,taxi_out,30.0,120.0,0.04,-0.03,0.04,55.42,379.79,455.29,55.22,65.04,0.788,15.15,none
2026-02-01 09:01:04,taxi_out,30.0,120.0,0.03,-0.05,-0.02,55.39,380.09,455.14,55.14,65.05,0.793,15.14,none
2026-02-01 09:01:05,taxi_out,30.0,120.0,0.05,-0.08,-0.1,55.49,380.29,453.89,55.11,65.03,0.791,15.13,none
2026-02-01 09:01:06,taxi_out,30.0,120.0,0.05,-0.13,-0.16,55.44,380.35,454.36,55.1,65.01,0.797,15.16,none
2026-02-01 09:01:07,taxi_out,30.0,120.0,0.02,-0.14,-0.19,55.49,380.39,454.7,55.08,65.02,0.805,15.14,none
2026-02-01 09:01:08,taxi_out,30.0,120.0,-0.03,-0.12,-0.19,55.45,379.99,454.14,55.13,65.01,0.806,15.17,none
2026-02-01 09:01:09,taxi_out,30.0,120.0,-0.07,-0.11,-0.21,55.53,380.97,455.27,55.17,65.08,0.807,15.11,none
2026-02-01 09:01:10,taxi_out,30.0,120.0,-0.02,-0.07,-0.25,55.59,381.55,455.11,55.2,65.09,0.803,15.15,none
2026-02-01 09:01:11,taxi_out,30.0,120.0,-0.03,-0.09,-0.2,55.63,381.41,456.31,55.16,65.06,0.804,15.11,none
2026-02-01 09:01:12,taxi_out,30.0,120.0,-0.04,-0.07,-0.2,55.77,381.15,456.81,55.21,65.1,0.808,15.08,none
2026-02-01 09:01:13,taxi_out,30.0,120.0,-0.02,-0.06,-0.19,55.84,382.46,454.23,55.19,65.13,0.804,15.06,none
2026-02-01 09:01:14,taxi_out,30.0,120.0,0.01,-0.12,-0.23,55.89,382.47,453.53,55.13,65.16,0.808,15.01,none
2026-02-01 09:01:15,taxi_out,30.0,120.0,-0.0,-0.12,-0.2,55.97,382.78,454.13,55.02,65.16,0.798,14.96,none
2026-02-01 09:01:16,taxi_out,30.0,120.0,-0.0,-0.09,-0.29,55.98,382.13,455.68,55.13,65.16,0.81,14.94,none
2026-02-01 09:01:17,taxi_out,30.0,120.0,0.0,-0.07,-0.27,55.97,382.53,456.18,55.12,65.2,0.805,14.93,none
2026-02-01 09:01:18,taxi_out,30.0,120.0,0.01,-0.1,-0.24,55.91,382.65,454.9,55.02,65.22,0.803,14.92,none
2026-02-01 09:01:19,taxi_out,30.0,120.0,0.03,-0.1,-0.23,55.96,383.23,456.74,55.07,65.27,0.812,14.86,none
2026-02-01 09:01:20,taxi_out,30.0,120.0,0.04,-0.09,-0.23,55.98,383.88,454.58,54.95,65.3,0.822,14.81,none
2026-02-01 09:01:21,taxi_out,30.0,120.0,0.05,-0.12,-0.29,55.93,383.88,456.27,54.94,65.33,0.821,14.85,none
2026-02-01 09:01:22,taxi_out,30.0,120.0,0.08,-0.11,-0.37,55.99,383.87,457.26,55.02,65.39,0.827,14.81,none
2026-02-01 09:01:23,taxi_out,30.0,120.0,0.06,-0.16,-0.34,55.96,384.15,457.32,55.02,65.38,0.832,14.81,none
2026-02-01 09:01:24,taxi_out,30.0,120.0,0.09,-0.16,-0.36,55.99,382.69,456.54,55.01,65.38,0.83,14.82,none
2026-02-01 09:01:25,taxi_out,30.0,120.0,0.1,-0.14,-0.31,56.06,383.63,458.1,54.96,65.4,0.825,14.84,none
2026-02-01 09:01:26,taxi_out,30.0,120.0,0.12,-0.19,-0.39,55.97,383.04,457.46,54.9,65.42,0.838,14.78,none
2026-02-01 09:01:27,taxi_out,30.0,120.0,0.12,-0.17,-0.45,56.03,383.14,455.85,54.84,65.41,0.837,14.77,none
2026-02-01 09:01:28,taxi_out,30.0,120.0,0.09,-0.15,-0.48,56.09,383.11,458.69,54.9,65.42,0.848,14.78,none
2026-02-01 09:01:29,taxi_out,30.0,120.0,0.07,-0.17,-0.5,56.08,383.23,458.42,54.91,65.42,0.843,14.82,none
2026-02-01 09:01:30,taxi_out,30.0,120.0,0.08,-0.14,-0.45,56.02,383.36,458.73,54.85,65.37,0.847,14.81,none
2026-02-01 09:01:31,taxi_out,30.0,120.0,0.1,-0.11,-0.37,56.05,383.64,457.94,54.94,65.37,0.843,14.81,none
2026-02-01 09:01:32,taxi_out,30.0,120.0,0.07,-0.08,-0.35,56.01,384.06,458.59,54.97,65.38,0.834,14.82,none
2026-02-01 09:01:33,taxi_out,30.0,120.0,0.08,-0.11,-0.35,56.07,384.89,459.03,54.98,65.41,0.83,14.82,none
2026-02-01 09:01:34,taxi_out,30.0,120.0,0.12,-0.11,-0.35,56.02,384.96,458.19,54.96,65.44,0.828,14.87,none
2026-02-01 09:01:35,taxi_out,30.0,120.0,0.08,-0.14,-0.35,56.04,384.97,457.88,54.98,65.46,0.823,14.85,none
2026-02-01 09:01:36,taxi_out,30.0,120.0,0.11,-0.12,-0.35,56.01,385.08,459.24,54.96,65.46,0.819,14.84,none
2026-02-01 09:01:37,taxi_out,30.0,120.0,0.13,-0.16,-0.34,55.95,385.56,458.25,54.95,65.46,0.819,14.84,none
2026-02-01 09:01:38,taxi_out,30.0,120.0,0.15,-0.16,-0.4,55.89,385.46,457.86,54.9,65.47,0.822,14.82,none
2026-02-01 09:01:39,taxi_out,30.0,120.0,0.12,-0.13,-0.31,55.8,386.14,459.51,54.94,65.41,0.821,14.86,none
2026-02-01 09:01:40,taxi_out,30.0,120.0,0.1,-0.12,-0.34,55.76,385.86,458.65,54.91,65.41,0.827,14.86,none
2026-02-01 09:01:41,taxi_out,30.0,120.0,0.1,-0.12,-0.31,55.78,386.04,458.17,54.86,65.42,0.821,14.91,none
2026-02-01 09:01:42,taxi_out,30.0,120.0,0.1,-0.18,-0.32,55.91,385.31,456.38,54.79,65.35,0.823,14.93,none
2026-02-01 09:01:43,taxi_out,30.0,120.0,0.08,-0.2,-0.37,56.03,384.99,457.41,54.8,65.37,0.813,14.96,none
2026-02-01 09:01:44,taxi_out,30.0,120.0,0.07,-0.2,-0.34,56.01,384.74,456.51,54.8,65.35,0.81,14.97,none
2026-02-01 09:01:45,taxi_out,30.0,120.0,0.06,-0.22,-0.32,55.97,384.68,458.17,54.88,65.27,0.809,15.01,none
2026-02-01 09:01:46,taxi_out,30.0,120.0,0.01,-0.18,-0.3,56.01,384.7,457.77,54.91,65.3,0.806,15.0,none
2026-02-01 09:01:47,taxi_out,30.0,120.0,-0.01,-0.18,-0.31,55.9,384.64,456.37,54.82,65.3,0.804,15.03,none
2026-02-01 09:01:48,taxi_out,30.0,120.0,-0.0,-0.14,-0.38,55.87,384.35,456.48,54.88,65.34,0.805,15.05,none
2026-02-01 09:01:49,taxi_out,30.0,120.0,-0.05,-0.14,-0.35,55.87,384.24,457.47,54.93,65.32,0.807,15.05,none
2026-02-01 09:01:50,taxi_out,30.0,120.0,-0.04,-0.1,-0.34,55.78,384.06,457.42,54.92,65.33,0.806,15.03,none
2026-02-01 09:01:51,taxi_out,30.0,120.0,-0.05,-0.09,-0.34,55.77,383.19,458.3,54.95,65.34,0.797,15.05,none
2026-02-01 09:01:52,taxi_out,30.0,120.0,-0.03,-0.08,-0.33,55.81,383.18,460.01,54.98,65.37,0.799,15.06,none
2026-02-01 09:01:53,taxi_out,30.0,120.0,0.0,-0.1,-0.27,55.83,382.66,457.15,54.97,65.39,0.794,14.99,none
2026-02-01 09:01:54,taxi_out,30.0,120.0,0.02,-0.07,-0.21,55.87,382.99,458.71,54.99,65.39,0.787,14.98,none
2026-02-01 09:01:55,taxi_out,30.0,120.0,0.01,-0.1,-0.24,55.74,383.31,459.15,54.92,65.47,0.784,14.98,none
2026-02-01 09:01:56,taxi_out,30.0,120.0,-0.03,-0.06,-0.3,55.75,383.42,459.02,54.9,65.47,0.783,14.97,none
2026-02-01 09:01:57,taxi_out,30.0,120.0,0.0,-0.1,-0.29,55.77,383.43,457.43,54.97,65.5,0.787,14.98,none
2026-02-01 09:01:58,taxi_out,30.0,120.0,0.01,-0.07,-0.27,55.83,382.84,457.5,54.94,65.49,0.787,14.93,none
2026-02-01 09:01:59,taxi_out,30.0,120.0,-0.03,-0.05,-0.18,55.86,383.15,458.83,54.93,65.45,0.782,14.91,none
2026-02-01 09:02:00,taxi_out,30.0,120.0,-0.03,-0.05,-0.15,55.75,383.62,457.74,54.93,65.41,0.787,14.92,none
2026-02-01 09:02:01,taxi_out,30.0,120.0,-0.04,-0.08,-0.19,55.72,383.86,457.88,54.95,65.44,0.79,14.94,none
2026-02-01 09:02:02,taxi_out,30.0,120.0,-0.04,-0.06,-0.19,55.65,383.94,457.27,54.97,65.4,0.781,14.98,none
2026-02-01 09:02:03,taxi_out,30.0,120.0,-0.03,-0.0,-0.11,55.68,383.34,458.83,54.94,65.39,0.775,14.98,none
2026-02-01 09:02:04,taxi_out,30.0,120.0,-0.02,-0.02,-0.13,55.77,382.63,457.09,54.98,65.41,0.78,14.99,none
2026-02-01 09:02:05,taxi_out,30.0,120.0,0.02,-0.01,-0.14,55.86,382.66,458.0,55.04,65.44,0.783,15.0,none
2026-02-01 09:02:06,taxi_out,30.0,120.0,0.02,-0.03,-0.09,55.81,382.59,458.15,55.04,65.48,0.783,14.96,none
2026-02-01 09:02:07,taxi_out,30.0,120.0,0.02,0.04,-0.09,55.72,382.8,459.46,55.09,65.55,0.787,14.98,none
2026-02-01 09:02:08,taxi_out,30.0,120.0,0.02,0.04,-0.1,55.61,383.35,456.73,55.17,65.49,0.797,14.95,none
2026-02-01 09:02:09,taxi_out,30.0,120.0,0.0,0.04,-0.09,55.6,382.97,457.93,55.2,65.55,0.793,14.97,none
2026-02-01 09:02:10,taxi_out,30.0,120.0,0.02,0.0,-0.04,55.65,383.27,457.76,55.14,65.6,0.785,14.97,none
2026-02-01 09:02:11,taxi_out,30.0,120.0,0.07,-0.07,-0.01,55.67,382.91,458.15,55.14,65.58,0.788,15.0,none
2026-02-01 09:02:12,taxi_out,30.0,120.0,0.05,-0.06,0.06,55.8,382.41,459.97,55.16,65.57,0.789,15.0,none
2026-02-01 09:02:13,taxi_out,30.0,120.0,0.06,-0.06,0.11,55.75,382.42,459.51,55.14,65.57,0.788,14.98,none
2026-02-01 09:02:14,taxi_out,30.0,120.0,0.08,-0.03,0.13,55.84,382.21,459.57,55.13,65.57,0.784,14.94,none
2026-02-01 09:02:15,taxi_out,30.0,120.0,0.06,-0.08,0.06,55.86,382.19,460.51,55.1,65.57,0.781,14.96,none
2026-02-01 09:02:16,taxi_out,30.0,120.0,0.04,-0.0,0.1,55.94,382.73,458.7,55.18,65.54,0.781,14.98,none
2026-02-01 09:02:17,taxi_out,30.0,120.0,0.02,-0.02,0.07,55.89,383.46,457.44,55.17,65.53,0.779,14.96,none
2026-02-01 09:02:18,taxi_out,30.0,120.0,-0.02,0.01,0.09,55.8,384.3,458.36,55.11,65.53,0.774,15.01,none
2026-02-01 09:02:19,taxi_out,30.0,120.0,0.0,-0.01,0.06,55.91,383.98,457.07,55.1,65.5,0.785,15.01,none
2026-02-01 09:02:20,taxi_out,30.0,120.0,-0.0,0.02,0.17,56.09,384.16,457.34,55.19,65.48,0.788,15.03,none
2026-02-01 09:02:21,taxi_out,30.0,120.0,0.01,0.01,0.21,56.08,383.77,457.74,55.23,65.51,0.788,15.05,none
2026-02-01 09:02:22,taxi_out,30.0,120.0,0.03,0.01,0.18,56.01,383.48,458.33,55.17,65.47,0.788,15.05,none
2026-02-01 09:02:23,taxi_out,30.0,120.0,0.0,0.05,0.2,55.96,383.88,458.58,55.15,65.51,0.79,15.09,none
2026-02-01 09:02:24,taxi_out,30.0,120.0,0.01,0.06,0.17,55.91,383.43,457.04,55.28,65.52,0.8,15.11,none
2026-02-01 09:02:25,taxi_out,30.0,120.0,0.01,0.09,0.21,55.92,383.57,456.35,55.27,65.53,0.801,15.06,none
2026-02-01 09:02:26,taxi_out,30.0,120.0,0.03,0.05,0.23,55.95,383.91,455.75,55.31,65.55,0.794,15.08,none
2026-02-01 09:02:27,taxi_out,30.0,120.0,0.03,0.04,0.21,55.94,383.67,456.07,55.26,65.56,0.795,15.05,none
2026-02-01 09:02:28,taxi_out,30.0,120.0,0.02,0.05,0.17,55.95,383.52,456.68,55.33,65.56,0.799,15.07,none
2026-02-01 09:02:29,taxi_out,30.0,120.0,0.02,0.05,0.14,55.85,383.5,458.12,55.33,65.57,0.798,15.07,none
2026-02-01 09:02:30,taxi_out,30.0,120.0,-0.0,0.06,0.23,55.82,383.69,456.52,55.36,65.59,0.797,15.1,none
2026-02-01 09:02:31,taxi_out,30.0,120.0,0.02,0.1,0.2,55.83,383.92,455.34,55.41,65.6,0.802,15.16,none
2026-02-01 09:02:32,taxi_out,30.0,120.0,-0.0,0.06,0.09,55.77,383.92,456.7,55.43,65.6,0.801,15.1,none
2026-02-01 09:02:33,taxi_out,30.0,120.0,-0.0,0.08,0.14,55.88,384.33,458.07,55.37,65.68,0.801,15.09,none
2026-02-01 09:02:34,taxi_out,30.0,120.0,-0.0,0.02,0.11,55.89,384.93,457.61,55.31,65.62,0.802,15.09,none
2026-02-01 09:02:35,taxi_out,30.0,120.0,-0.02,0.07,0.08,55.87,385.03,457.71,55.37,65.62,0.807,15.11,none
2026-02-01 09:02:36,taxi_out,30.0,120.0,-0.06,0.11,0.03,55.87,385.27,458.08,55.38,65.64,0.807,15.09,none
2026-02-01 09:02:37,taxi_out,30.0,120.0,-0.02,0.11,0.06,55.89,385.81,456.96,55.37,65.66,0.809,15.08,none
2026-02-01 09:02:38,taxi_out,30.0,120.0,-0.03,0.08,0.1,55.88,385.45,457.41,55.41,65.66,0.805,15.07,none
2026-02-01 09:02:39,taxi_out,30.0,120.0,-0.05,0.08,0.07,55.82,386.11,458.07,55.47,65.67,0.811,15.09,none
2026-02-01 09:02:40,taxi_out,30.0,120.0,-0.04,0.08,0.1,55.86,386.25,458.58,55.44,65.68,0.816,15.08,none
2026-02-01 09:02:41,taxi_out,30.0,120.0,-0.0,0.01,0.09,55.9,386.31,460.86,55.36,65.72,0.809,15.11,none
2026-02-01 09:02:42,taxi_out,30.0,120.0,0.03,-0.01,0.13,55.96,385.81,460.74,55.35,65.72,0.807,15.12,none
2026-02-01 09:02:43,taxi_out,30.0,120.0,0.05,0.01,0.07,56.06,385.5,460.57,55.41,65.74,0.806,15.13,none
2026-02-01 09:02:44,taxi_out,30.0,120.0,-0.01,0.01,0.1,55.99,384.88,460.04,55.4,65.75,0.804,15.15,none
2026-02-01 09:02:45,taxi_out,30.0,120.0,0.01,-0.04,0.07,55.96,384.23,460.25,55.45,65.69,0.807,15.11,none
2026-02-01 09:02:46,taxi_out,30.0,120.0,-0.01,-0.03,0.11,55.93,384.4,461.05,55.42,65.69,0.81,15.08,none
2026-02-01 09:02:47,taxi_out,30.0,120.0,-0.03,-0.02,0.19,55.8,384.86,462.78,55.4,65.7,0.808,15.06,none
2026-02-01 09:02:48,taxi_out,30.0,120.0,-0.02,-0.06,0.12,55.8,385.0,463.34,55.37,65.69,0.811,15.04,none
2026-02-01 09:02:49,taxi_out,30.0,120.0,-0.0,-0.06,0.09,55.92,384.52,463.08,55.22,65.64,0.796,15.04,none
2026-02-01 09:02:50,taxi_out,30.0,120.0,0.01,-0.07,0.04,55.84,384.29,464.86,55.22,65.65,0.795,15.1,none
2026-02-01 09:02:51,taxi_out,30.0,120.0,-0.02,-0.02,0.08,55.76,383.59,463.59,55.09,65.58,0.805,15.09,none
2026-02-01 09:02:52,taxi_out,30.0,120.0,-0.03,-0.03,0.08,55.86,383.88,464.27,55.13,65.65,0.815,15.06,none
2026-02-01 09:02:53,taxi_out,30.0,120.0,-0.04,-0.08,0.04,55.95,384.28,464.01,55.1,65.65,0.813,15.08,none
2026-02-01 09:02:54,taxi_out,30.0,120.0,-0.04,-0.07,0.07,56.03,384.59,465.31,55.2,65.7,0.812,15.08,none
2026-02-01 09:02:55,taxi_out,30.0,120.0,-0.04,-0.11,-0.07,55.98,385.08,469.25,55.24,65.7,0.815,15.03,none
2026-02-01 09:02:56,taxi_out,30.0,120.0,-0.04,-0.19,-0.13,55.98,384.67,470.35,55.19,65.66,0.808,15.0,none
2026-02-01 09:02:57,taxi_out,30.0,120.0,-0.01,-0.16,-0.05,56.13,384.61,469.32,55.16,65.63,0.805,15.06,none
2026-02-01 09:02:58,taxi_out,30.0,120.0,-0.0,-0.17,-0.06,56.05,383.68,470.6,55.21,65.62,0.802,15.07,none
2026-02-01 09:02:59,taxi_out,30.0,120.0,0.02,-0.12,-0.06,56.05,383.55,471.75,55.3,65.62,0.796,15.08,none
2026-02-01 09:03:00,taxi_out,30.0,120.0,-0.01,-0.13,-0.11,56.07,382.9,471.2,55.22,65.62,0.788,15.1,none
2026-02-01 09:03:01,taxi_out,30.0,120.0,0.0,-0.14,-0.12,56.02,382.0,472.08,55.11,65.62,0.793,15.04,none
2026-02-01 09:03:02,taxi_out,30.0,120.0,-0.03,-0.18,-0.13,55.98,381.96,472.53,55.1,65.56,0.788,15.07,none
2026-02-01 09:03:03,taxi_out,30.0,120.0,-0.02,-0.2,-0.15,56.12,382.46,473.48,55.08,65.51,0.794,15.06,none
2026-02-01 09:03:04,taxi_out,30.0,120.0,-0.01,-0.18,-0.16,56.14,382.85,472.95,55.04,65.53,0.79,15.08,none
2026-02-01 09:03:05,taxi_out,30.0,120.0,-0.01,-0.19,-0.11,56.11,382.65,471.96,55.12,65.51,0.789,15.08,none
2026-02-01 09:03:06,taxi_out,30.0,120.0,-0.03,-0.13,-0.1,56.07,382.94,471.92,55.1,65.48,0.796,15.05,none
2026-02-01 09:03:07,taxi_out,30.0,120.0,-0.05,-0.12,-0.12,55.99,383.23,471.43,55.02,65.51,0.792,15.01,none
2026-02-01 09:03:08,taxi_out,30.0,120.0,-0.02,-0.17,-0.11,56.06,382.71,471.7,55.04,65.55,0.797,15.04,none
2026-02-01 09:03:09,taxi_out,30.0,120.0,-0.01,-0.17,-0.17,56.1,383.23,471.56,55.03,65.57,0.797,14.98,none
2026-02-01 09:03:10,taxi_out,30.0,120.0,-0.0,-0.13,-0.19,56.1,383.59,471.56,54.89,65.63,0.795,14.99,none
2026-02-01 09:03:11,taxi_out,30.0,120.0,0.02,-0.14,-0.2,56.31,383.9,471.92,54.88,65.64,0.794,15.02,none
2026-02-01 09:03:12,taxi_out,30.0,120.0,0.03,-0.12,-0.22,56.47,383.16,471.24,54.91,65.6,0.795,15.04,none
2026-02-01 09:03:13,taxi_out,30.0,120.0,0.03,-0.15,-0.15,56.42,383.02,472.13,54.96,65.6,0.789,15.05,none
2026-02-01 09:03:14,taxi_out,30.0,120.0,0.04,-0.22,-0.19,56.36,382.68,473.4,55.0,65.66,0.799,15.02,none
2026-02-01 09:03:15,taxi_out,30.0,120.0,0.03,-0.25,-0.12,56.54,382.34,473.16,54.98,65.69,0.801,14.99,none
2026-02-01 09:03:16,taxi_out,30.0,120.0,0.08,-0.3,-0.14,56.6,383.01,473.16,55.05,65.7,0.798,14.97,none
2026-02-01 09:03:17,taxi_out,30.0,120.0,0.07,-0.29,-0.08,56.51,382.38,473.22,54.96,65.66,0.792,14.98,none
2026-02-01 09:03:18,taxi_out,30.0,120.0,0.08,-0.32,-0.05,56.46,382.58,473.65,54.93,65.67,0.794,14.94,none
2026-02-01 09:03:19,taxi_out,30.0,120.0,0.07,-0.34,-0.04,56.44,382.78,472.8,54.82,65.64,0.796,14.92,none
2026-02-01 09:03:20,taxi_out,30.0,120.0,0.05,-0.3,0.1,56.57,382.27,470.15,54.74,65.64,0.787,14.96,none
2026-02-01 09:03:21,taxi_out,30.0,120.0,0.05,-0.22,0.15,56.64,382.77,469.68,54.76,65.7,0.793,14.99,none
2026-02-01 09:03:22,taxi_out,30.0,120.0,0.04,-0.26,0.16,56.56,382.93,468.68,54.72,65.72,0.792,14.94,none
2026-02-01 09:03:23,taxi_out,30.0,120.0,0.08,-0.28,0.2,56.66,383.08,468.04,54.68,65.7,0.795,14.96,none
2026-02-01 09:03:24,taxi_out,30.0,120.0,0.07,-0.28,0.21,56.7,382.97,468.11,54.52,65.75,0.795,14.97,none
2026-02-01 09:03:25,taxi_out,30.0,120.0,0.07,-0.3,0.21,56.77,383.54,468.9,54.59,65.76,0.804,14.89,none
2026-02-01 09:03:26,taxi_out,30.0,120.0,0.08,-0.29,0.31,56.85,384.29,467.94,54.72,65.81,0.805,14.92,none
2026-02-01 09:03:27,taxi_out,30.0,120.0,0.04,-0.27,0.28,56.81,384.53,467.86,54.69,65.86,0.81,14.91,none
2026-02-01 09:03:28,taxi_out,30.0,120.0,0.02,-0.23,0.27,56.71,384.61,467.54,54.64,65.89,0.804,14.93,none
2026-02-01 09:03:29,taxi_out,30.0,120.0,0.03,-0.26,0.31,56.75,383.6,466.55,54.63,65.86,0.799,14.88,none
2026-02-01 09:03:30,taxi_out,30.0,120.0,0.06,-0.26,0.25,56.75,384.15,466.84,54.64,65.84,0.8,14.88,none
2026-02-01 09:03:31,taxi_out,30.0,120.0,0.08,-0.33,0.2,56.76,384.2,466.58,54.67,65.87,0.794,14.88,none
2026-02-01 09:03:32,taxi_out,30.0,120.0,0.06,-0.29,0.24,56.79,383.99,467.54,54.74,65.89,0.802,14.88,none
2026-02-01 09:03:33,taxi_out,30.0,120.0,0.05,-0.29,0.19,56.78,385.0,467.64,54.62,65.91,0.799,14.87,none
2026-02-01 09:03:34,taxi_out,30.0,120.0,0.04,-0.25,0.22,56.89,384.72,466.86,54.66,65.94,0.795,14.87,none
2026-02-01 09:03:35,taxi_out,30.0,120.0,0.01,-0.28,0.23,56.85,384.46,467.46,54.82,65.98,0.794,14.87,none
2026-02-01 09:03:36,taxi_out,30.0,120.0,0.01,-0.31,0.19,56.71,384.25,466.52,54.83,65.96,0.793,14.83,none
2026-02-01 09:03:37,taxi_out,30.0,120.0,-0.01,-0.31,0.12,56.77,384.19,465.54,54.8,65.97,0.791,14.81,none
2026-02-01 09:03:38,taxi_out,30.0,120.0,-0.01,-0.31,0.13,56.81,384.76,464.83,54.81,65.99,0.796,14.81,none
2026-02-01 09:03:39,taxi_out,30.0,120.0,-0.04,-0.27,0.14,56.86,385.31,464.59,54.83,65.99,0.791,14.87,none
2026-02-01 09:03:40,taxi_out,30.0,120.0,-0.04,-0.28,0.14,56.76,385.37,464.97,54.81,65.98,0.786,14.92,none
2026-02-01 09:03:41,taxi_out,30.0,120.0,-0.04,-0.19,0.14,56.78,385.32,466.41,54.85,66.04,0.789,14.97,none
2026-02-01 09:03:42,taxi_out,30.0,120.0,-0.05,-0.17,0.06,56.85,385.28,467.34,54.92,66.07,0.791,14.93,none
2026-02-01 09:03:43,taxi_out,30.0,120.0,-0.09,-0.19,0.07,56.86,385.16,465.76,54.95,66.12,0.791,14.96,none
2026-02-01 09:03:44,taxi_out,30.0,120.0,-0.08,-0.21,0.04,56.95,385.15,466.12,54.89,66.16,0.786,14.96,none
2026-02-01 09:03:45,taxi_out,30.0,120.0,-0.07,-0.2,-0.04,56.99,385.18,466.63,54.93,66.16,0.793,14.95,none
2026-02-01 09:03:46,taxi_out,30.0,120.0,-0.06,-0.25,0.01,56.98,385.13,466.47,54.94,66.15,0.789,14.94,none
2026-02-01 09:03:47,taxi_out,30.0,120.0,-0.07,-0.26,-0.02,57.02,385.29,467.87,54.96,66.18,0.79,14.96,none
2026-02-01 09:03:48,taxi_out,30.0,120.0,-0.12,-0.28,-0.12,56.98,384.9,466.8,55.01,66.19,0.793,14.95,none
2026-02-01 09:03:49,taxi_out,30.0,120.0,-0.11,-0.27,-0.07,56.96,384.84,466.49,55.08,66.18,0.801,14.95,none
2026-02-01 09:03:50,taxi_out,30.0,120.0,-0.08,-0.26,-0.04,56.95,385.38,465.27,55.04,66.14,0.804,15.01,none
2026-02-01 09:03:51,taxi_out,30.0,120.0,-0.12,-0.23,-0.13,56.91,385.6,463.86,54.95,66.14,0.809,15.02,none
2026-02-01 09:03:52,taxi_out,30.0,120.0,-0.09,-0.24,-0.17,56.97,385.63,462.68,54.94,66.11,0.806,15.01,none
2026-02-01 09:03:53,taxi_out,30.0,120.0,-0.08,-0.27,-0.12,57.07,385.65,463.63,54.98,66.15,0.812,15.01,none
2026-02-01 09:03:54,taxi_out,30.0,120.0,-0.1,-0.25,-0.2,56.98,385.93,463.73,54.9,66.17,0.817,15.07,none
2026-02-01 09:03:55,taxi_out,30.0,120.0,-0.08,-0.21,-0.18,57.06,386.13,464.47,54.8,66.22,0.817,15.1,none
2026-02-01 09:03:56,taxi_out,30.0,120.0,-0.11,-0.25,-0.12,57.15,386.33,463.77,54.73,66.21,0.822,15.08,none
2026-02-01 09:03:57,taxi_out,30.0,120.0,-0.1,-0.23,-0.11,57.2,386.75,462.08,54.76,66.15,0.821,15.11,none
2026-02-01 09:03:58,taxi_out,30.0,120.0,-0.09,-0.21,-0.06,57.08,386.16,461.68,54.83,66.12,0.821,15.15,none
2026-02-01 09:03:59,taxi_out,30.0,120.0,-0.09,-0.21,-0.1,56.96,387.21,464.46,54.81,66.09,0.824,15.14,none
2026-02-01 09:04:00,taxi_out,30.0,120.0,-0.1,-0.19,-0.13,57.08,387.71,463.53,54.69,66.08,0.827,15.11,none
2026-02-01 09:04:01,taxi_out,30.0,120.0,-0.11,-0.21,-0.12,57.08,388.01,463.55,54.63,66.1,0.827,15.11,none
2026-02-01 09:04:02,taxi_out,30.0,120.0,-0.07,-0.23,-0.1,56.98,388.36,464.44,54.65,66.14,0.824,15.16,none
2026-02-01 09:04:03,taxi_out,30.0,120.0,-0.07,-0.18,-0.14,56.96,387.75,464.35,54.61,66.1,0.822,15.14,none
2026-02-01 09:04:04,taxi_out,30.0,120.0,-0.07,-0.21,-0.12,56.99,388.44,465.63,54.63,66.08,0.818,15.09,none
2026-02-01 09:04:05,taxi_out,30.0,120.0,-0.06,-0.16,-0.14,57.07,388.69,466.01,54.62,66.08,0.824,15.05,none
2026-02-01 09:04:06,taxi_out,30.0,120.0,-0.1,-0.2,-0.17,57.05,388.03,465.3,54.6,66.09,0.816,15.02,none
2026-02-01 09:04:07,taxi_out,30.0,120.0,-0.09,-0.28,-0.07,57.05,388.08,463.77,54.64,66.13,0.813,15.09,none
2026-02-01 09:04:08,taxi_out,30.0,120.0,-0.05,-0.21,-0.05,56.99,388.18,464.6,54.66,66.08,0.812,15.1,none
2026-02-01 09:04:09,taxi_out,30.0,120.0,-0.04,-0.19,-0.05,56.89,388.2,463.91,54.69,66.08,0.816,15.09,none
2026-02-01 09:04:10,taxi_out,30.0,120.0,-0.0,-0.22,0.03,56.85,388.32,463.0,54.64,66.02,0.821,15.12,none
2026-02-01 09:04:11,taxi_out,30.0,120.0,0.01,-0.21,0.05,56.82,388.77,462.6,54.61,65.98,0.825,15.1,none
2026-02-01 09:04:12,taxi_out,30.0,120.0,0.03,-0.16,0.03,56.87,388.34,462.83,54.63,65.94,0.825,15.09,none
2026-02-01 09:04:13,taxi_out,30.0,120.0,0.03,-0.09,0.08,56.94,388.9,464.28,54.58,65.93,0.819,15.08,none
2026-02-01 09:04:14,taxi_out,30.0,120.0,0.01,-0.09,-0.04,57.01,388.24,464.05,54.59,65.88,0.812,15.06,none
2026-02-01 09:04:15,taxi_out,30.0,120.0,-0.01,-0.11,-0.02,56.98,387.95,464.34,54.63,65.92,0.803,15.05,none
2026-02-01 09:04:16,taxi_out,30.0,120.0,0.02,-0.1,0.01,57.02,387.95,465.31,54.62,65.9,0.798,15.05,none
2026-02-01 09:04:17,taxi_out,30.0,120.0,0.01,-0.12,0.07,57.02,388.04,465.86,54.65,65.94,0.804,15.08,none
2026-02-01 09:04:18,taxi_out,30.0,120.0,0.01,-0.06,-0.01,56.92,387.57,465.75,54.58,65.95,0.795,15.06,none
2026-02-01 09:04:19,taxi_out,30.0,120.0,0.03,-0.1,-0.03,56.99,388.41,467.15,54.59,65.98,0.796,15.01,none
2026-02-01 09:04:20,taxi_out,30.0,120.0,0.01,-0.09,-0.02,56.89,388.23,464.52,54.59,65.99,0.793,15.03,none
2026-02-01 09:04:21,taxi_out,30.0,120.0,0.02,-0.05,-0.0,56.89,388.38,464.28,54.68,65.99,0.79,15.03,none
2026-02-01 09:04:22,taxi_out,30.0,120.0,0.03,-0.06,-0.04,56.88,387.84,464.52,54.64,66.01,0.788,15.03,none
2026-02-01 09:04:23,taxi_out,30.0,120.0,0.01,-0.06,-0.02,57.0,388.29,464.96,54.67,66.03,0.781,14.99,none
2026-02-01 09:04:24,taxi_out,30.0,120.0,0.01,-0.13,-0.02,57.05,387.51,463.98,54.69,66.03,0.785,14.99,none
2026-02-01 09:04:25,taxi_out,30.0,120.0,0.02,-0.15,0.02,56.98,387.56,463.01,54.65,65.99,0.782,15.0,none
2026-02-01 09:04:26,taxi_out,30.0,120.0,0.06,-0.07,0.01,57.01,387.94,462.78,54.72,65.99,0.777,15.01,none
2026-02-01 09:04:27,taxi_out,30.0,120.0,0.04,-0.07,0.01,57.05,388.24,461.92,54.74,65.96,0.778,14.96,none
2026-02-01 09:04:28,taxi_out,30.0,120.0,0.05,-0.06,-0.02,57.12,388.11,461.76,54.72,65.98,0.777,14.97,none
2026-02-01 09:04:29,taxi_out,30.0,120.0,0.04,-0.03,-0.06,57.02,387.87,460.99,54.72,66.01,0.793,15.0,none
2026-02-01 09:04:30,taxi_out,30.0,120.0,0.08,-0.05,-0.08,57.01,387.44,459.33,54.72,66.03,0.793,15.01,none
2026-02-01 09:04:31,taxi_out,30.0,120.0,0.06,-0.06,-0.08,57.12,388.28,459.83,54.72,65.99,0.792,15.01,none
2026-02-01 09:04:32,taxi_out,30.0,120.0,0.07,0.01,-0.16,57.1,388.81,460.52,54.62,65.95,0.795,14.98,none
2026-02-01 09:04:33,taxi_out,30.0,120.0,0.07,-0.08,-0.19,57.09,388.3,460.7,54.52,66.0,0.792,14.98,none
2026-02-01 09:04:34,taxi_out,30.0,120.0,0.07,-0.02,-0.22,57.17,387.86,461.91,54.52,65.99,0.791,15.0,none
2026-02-01 09:04:35,taxi_out,30.0,120.0,0.04,-0.02,-0.2,57.1,387.82,463.82,54.51,66.09,0.793,15.02,none
2026-02-01 09:04:36,taxi_out,30.0,120.0,0.06,0.01,-0.3,57.14,387.36,463.62,54.5,66.15,0.791,15.0,none
2026-02-01 09:04:37,taxi_out,30.0,120.0,0.05,-0.06,-0.28,57.12,387.63,464.08,54.45,66.21,0.789,15.0,none
2026-02-01 09:04:38,taxi_out,30.0,120.0,0.04,-0.04,-0.3,57.08,387.73,464.83,54.45,66.21,0.792,15.01,none
2026-02-01 09:04:39,taxi_out,30.0,120.0,0.05,0.02,-0.17,57.09,388.42,463.96,54.47,66.27,0.786,15.0,none
2026-02-01 09:04:40,taxi_out,30.0,120.0,0.06,0.01,-0.16,57.14,388.15,465.29,54.46,66.27,0.78,15.0,none
2026-02-01 09:04:41,taxi_out,30.0,120.0,0.09,0.01,-0.2,57.12,387.96,466.78,54.5,66.26,0.782,15.06,none
2026-02-01 09:04:42,taxi_out,30.0,120.0,0.08,0.05,-0.16,57.16,388.19,466.69,54.52,66.26,0.783,15.02,none
2026-02-01 09:04:43,taxi_out,30.0,120.0,0.11,0.0,-0.14,57.3,389.03,465.32,54.62,66.27,0.782,15.04,none
2026-02-01 09:04:44,taxi_out,30.0,120.0,0.1,0.04,-0.06,57.28,388.49,465.37,54.64,66.28,0.782,15.06,none
2026-02-01 09:04:45,taxi_out,30.0,120.0,0.11,0.03,-0.08,57.3,387.99,467.14,54.71,66.25,0.785,15.05,none
2026-02-01 09:04:46,taxi_out,30.0,120.0,0.1,0.01,-0.16,57.3,387.99,468.39,54.75,66.27,0.785,15.02,none
2026-02-01 09:04:47,taxi_out,30.0,120.0,0.08,0.02,-0.13,57.33,387.94,469.93,54.8,66.29,0.787,15.01,none
2026-02-01 09:04:48,taxi_out,30.0,120.0,0.1,-0.02,-0.16,57.22,387.74,470.84,54.77,66.27,0.792,15.02,none
2026-02-01 09:04:49,taxi_out,30.0,120.0,0.12,-0.01,-0.05,57.25,388.23,469.91,54.75,66.28,0.78,15.04,none
2026-02-01 09:04:50,taxi_out,30.0,120.0,0.15,0.01,-0.1,57.25,387.38,471.98,54.87,66.31,0.79,15.07,none
2026-02-01 09:04:51,taxi_out,30.0,120.0,0.13,-0.0,-0.04,57.22,387.3,473.73,54.79,66.33,0.797,15.07,none
2026-02-01 09:04:52,taxi_out,30.0,120.0,0.12,-0.03,-0.02,57.27,387.01,474.42,54.72,66.33,0.801,15.09,none
2026-02-01 09:04:53,taxi_out,30.0,120.0,0.1,-0.03,0.01,57.24,387.14,474.29,54.74,66.4,0.804,15.13,none
2026-02-01 09:04:54,taxi_out,30.0,120.0,0.12,-0.03,0.05,57.35,387.02,473.08,54.77,66.35,0.801,15.15,none
2026-02-01 09:04:55,taxi_out,30.0,120.0,0.08,0.01,0.02,57.33,387.45,474.14,54.82,66.33,0.796,15.14,none
2026-02-01 09:04:56,taxi_out,30.0,120.0,0.08,0.03,0.09,57.27,386.74,474.52,54.78,66.36,0.798,15.13,none
2026-02-01 09:04:57,taxi_out,30.0,120.0,0.08,0.04,0.01,57.31,387.11,474.98,54.82,66.39,0.792,15.14,none
2026-02-01 09:04:58,taxi_out,30.0,120.0,0.07,0.09,-0.01,57.39,387.75,476.17,54.87,66.37,0.801,15.11,none
2026-02-01 09:04:59,taxi_out,30.0,120.0,0.04,0.09,-0.0,57.4,388.29,474.63,54.85,66.36,0.796,15.09,none
2026-02-01 09:05:00,taxi_out,30.0,120.0,0.01,0.06,-0.1,57.35,388.71,474.08,54.9,66.32,0.789,15.04,none
2026-02-01 09:05:01,taxi_out,30.0,120.0,-0.04,0.09,-0.08,57.39,388.51,474.38,54.86,66.3,0.789,15.06,none
2026-02-01 09:05:02,taxi_out,30.0,120.0,-0.05,0.12,-0.04,57.35,389.08,473.77,54.97,66.31,0.789,15.07,none
2026-02-01 09:05:03,taxi_out,30.0,120.0,-0.05,0.06,0.01,57.37,388.89,473.05,55.02,66.36,0.789,15.05,none
2026-02-01 09:05:04,taxi_out,30.0,120.0,-0.07,0.04,-0.04,57.34,389.11,474.22,55.05,66.37,0.797,15.05,none
2026-02-01 09:05:05,taxi_out,30.0,120.0,-0.04,0.08,-0.08,57.41,388.52,473.34,55.03,66.35,0.812,15.05,none
2026-02-01 09:05:06,taxi_out,30.0,120.0,-0.06,0.08,-0.04,57.42,388.76,472.07,55.02,66.37,0.809,15.03,none
2026-02-01 09:05:07,taxi_out,30.0,120.0,-0.05,0.11,-0.07,57.38,388.26,473.7,54.99,66.36,0.809,15.07,none
2026-02-01 09:05:08,taxi_out,30.0,120.0,-0.06,0.15,-0.05,57.29,387.9,474.16,54.92,66.32,0.813,15.07,none
2026-02-01 09:05:09,taxi_out,30.0,120.0,-0.06,0.13,-0.03,57.29,388.23,472.13,54.99,66.32,0.81,15.09,none
2026-02-01 09:05:10,taxi_out,30.0,120.0,-0.05,0.13,-0.02,57.39,388.23,473.38,55.02,66.33,0.808,15.05,none
2026-02-01 09:05:11,taxi_out,30.0,120.0,-0.06,0.14,-0.02,57.26,387.87,474.12,54.93,66.33,0.807,15.08,none
2026-02-01 09:05:12,taxi_out,30.0,120.0,-0.03,0.13,-0.05,57.22,387.98,472.88,54.9,66.33,0.812,15.1,none
2026-02-01 09:05:13,taxi_out,30.0,120.0,-0.05,0.12,-0.05,57.28,387.77,473.19,54.9,66.37,0.81,15.07,none
2026-02-01 09:05:14,taxi_out,30.0,120.0,-0.09,0.17,-0.12,57.3,387.83,473.92,54.86,66.36,0.822,15.05,none
2026-02-01 09:05:15,taxi_out,30.0,120.0,-0.09,0.15,-0.07,57.41,388.35,473.37,54.85,66.37,0.817,15.05,none
2026-02-01 09:05:16,taxi_out,30.0,120.0,-0.07,0.19,-0.1,57.42,387.02,472.74,54.87,66.38,0.813,15.0,none
2026-02-01 09:05:17,taxi_out,30.0,120.0,-0.02,0.22,-0.1,57.4,386.91,472.8,54.9,66.39,0.815,14.98,none
2026-02-01 09:05:18,taxi_out,30.0,120.0,-0.01,0.21,-0.11,57.4,386.74,472.28,54.9,66.37,0.815,14.97,none
2026-02-01 09:05:19,taxi_out,30.0,120.0,-0.01,0.2,-0.13,57.43,386.27,473.03,54.82,66.39,0.812,14.94,none
2026-02-01 09:05:20,taxi_out,30.0,120.0,-0.03,0.16,-0.12,57.41,385.92,471.95,54.81,66.44,0.809,14.95,none
2026-02-01 09:05:21,taxi_out,30.0,120.0,0.0,0.2,-0.18,57.41,386.53,470.9,54.84,66.44,0.81,14.96,none
2026-02-01 09:05:22,taxi_out,30.0,120.0,-0.01,0.24,-0.15,57.48,386.51,470.97,54.83,66.41,0.809,14.94,none
2026-02-01 09:05:23,taxi_out,30.0,120.0,-0.03,0.26,-0.15,57.47,386.62,469.57,54.83,66.41,0.809,14.92,none
2026-02-01 09:05:24,taxi_out,30.0,120.0,-0.02,0.24,-0.11,57.46,386.32,470.45,54.87,66.44,0.809,14.92,none
2026-02-01 09:05:25,taxi_out,30.0,120.0,-0.0,0.25,-0.09,57.56,386.19,471.26,54.9,66.42,0.811,14.94,none
2026-02-01 09:05:26,taxi_out,30.0,120.0,0.01,0.18,-0.09,57.38,386.39,471.68,54.96,66.41,0.815,14.91,none
2026-02-01 09:05:27,taxi_out,30.0,120.0,0.02,0.18,-0.09,57.45,386.05,471.96,54.93,66.38,0.816,14.92,none
2026-02-01 09:05:28,taxi_out,30.0,120.0,0.05,0.22,-0.09,57.38,385.79,472.57,54.84,66.33,0.819,14.94,none
2026-02-01 09:05:29,taxi_out,30.0,120.0,0.09,0.18,-0.13,57.29,384.99,472.84,54.81,66.36,0.812,14.92,none
2026-02-01 09:05:30,taxi_out,30.0,120.0,0.08,0.19,-0.08,57.23,385.57,473.27,54.78,66.37,0.81,14.93,none
2026-02-01 09:05:31,taxi_out,30.0,120.0,0.07,0.18,-0.06,57.31,385.69,474.04,54.73,66.4,0.807,14.91,none
2026-02-01 09:05:32,taxi_out,30.0,120.0,0.06,0.13,-0.1,57.33,385.88,473.83,54.76,66.42,0.801,14.92,none
2026-02-01 09:05:33,taxi_out,30.0,120.0,0.08,0.13,-0.15,57.38,385.63,473.26,54.83,66.42,0.798,14.88,none
2026-02-01 09:05:34,taxi_out,30.0,120.0,0.06,0.16,-0.14,57.48,385.21,475.32,54.84,66.42,0.799,14.86,none
2026-02-01 09:05:35,taxi_out,30.0,120.0,0.06,0.15,-0.15,57.52,385.66,474.7,54.8,66.45,0.809,14.92,none
2026-02-01 09:05:36,taxi_out,30.0,120.0,0.1,0.17,-0.19,57.68,385.49,473.05,54.78,66.44,0.815,14.99,none
2026-02-01 09:05:37,taxi_out,30.0,120.0,0.09,0.13,-0.21,57.77,385.8,474.19,54.79,66.5,0.811,15.01,none
2026-02-01 09:05:38,taxi_out,30.0,120.0,0.07,0.19,-0.2,57.83,385.8,474.25,54.81,66.48,0.811,15.05,none
2026-02-01 09:05:39,taxi_out,30.0,120.0,0.08,0.15,-0.23,57.72,385.32,474.56,54.87,66.53,0.81,15.06,none
2026-02-01 09:05:40,taxi_out,30.0,120.0,0.09,0.14,-0.25,57.63,384.99,475.28,54.77,66.52,0.811,15.05,none
2026-02-01 09:05:41,taxi_out,30.0,120.0,0.06,0.09,-0.27,57.6,385.79,477.0,54.77,66.48,0.806,15.08,none
2026-02-01 09:05:42,taxi_out,30.0,120.0,0.02,0.05,-0.22,57.72,386.25,476.63,54.77,66.48,0.799,15.11,none
2026-02-01 09:05:43,taxi_out,30.0,120.0,0.05,0.03,-0.23,57.72,386.78,476.23,54.81,66.47,0.799,15.09,none
2026-02-01 09:05:44,taxi_out,30.0,120.0,0.05,0.01,-0.2,57.68,387.64,477.09,54.76,66.52,0.792,15.05,none
2026-02-01 09:05:45,taxi_out,30.0,120.0,0.07,0.06,-0.14,57.75,388.23,478.47,54.75,66.43,0.796,15.05,none
2026-02-01 09:05:46,taxi_out,30.0,120.0,0.05,0.01,-0.07,57.75,387.87,479.02,54.76,66.44,0.795,15.1,none
2026-02-01 09:05:47,taxi_out,30.0,120.0,0.07,-0.08,-0.0,57.79,387.37,480.31,54.81,66.46,0.801,15.12,none
2026-02-01 09:05:48,taxi_out,30.0,120.0,0.1,-0.06,-0.04,57.75,387.05,479.88,54.87,66.46,0.798,15.16,none
2026-02-01 09:05:49,taxi_out,30.0,120.0,0.12,-0.12,-0.04,57.75,387.7,479.96,54.88,66.48,0.806,15.17,none
2026-02-01 09:05:50,taxi_out,30.0,120.0,0.12,-0.1,0.01,57.68,387.2,478.36,54.78,66.51,0.805,15.16,none
2026-02-01 09:05:51,taxi_out,30.0,120.0,0.15,-0.07,0.02,57.75,387.66,480.27,54.7,66.56,0.8,15.16,none
2026-02-01 09:05:52,taxi_out,30.0,120.0,0.13,-0.07,0.06,57.7,388.19,481.74,54.65,66.57,0.805,15.18,none
2026-02-01 09:05:53,taxi_out,30.0,120.0,0.1,-0.06,0.07,57.73,389.18,480.8,54.74,66.62,0.803,15.13,none
2026-02-01 09:05:54,taxi_out,30.0,120.0,0.08,-0.03,0.12,57.81,389.64,480.05,54.79,66.62,0.804,15.15,none
2026-02-01 09:05:55,taxi_out,30.0,120.0,0.04,-0.07,0.13,57.76,390.02,480.75,54.86,66.67,0.802,15.14,none
2026-02-01 09:05:56,taxi_out,30.0,120.0,0.03,-0.02,0.1,57.63,390.72,479.92,54.94,66.63,0.806,15.12,none
2026-02-01 09:05:57,taxi_out,30.0,120.0,0.07,0.01,0.06,57.64,390.59,479.57,54.98,66.62,0.81,15.09,none
2026-02-01 09:05:58,taxi_out,30.0,120.0,0.03,-0.01,0.07,57.53,390.26,480.65,54.91,66.64,0.817,15.15,none
2026-02-01 09:05:59,taxi_out,30.0,120.0,0.05,-0.01,0.07,57.49,389.99,478.49,54.87,66.66,0.816,15.13,none
2026-02-01 09:06:00,taxi_out,30.0,120.0,0.02,-0.01,0.05,57.44,390.05,477.84,54.93,66.66,0.803,15.07,none
2026-02-01 09:06:01,taxi_out,30.0,120.0,-0.01,-0.02,0.11,57.3,389.89,477.97,54.95,66.65,0.81,15.03,none
2026-02-01 09:06:02,taxi_out,30.0,120.0,-0.04,0.07,0.12,57.26,389.56,477.61,55.02,66.63,0.813,15.02,none
2026-02-01 09:06:03,taxi_out,30.0,120.0,-0.02,0.05,0.19,57.22,390.04,478.29,55.0,66.56,0.816,14.98,none
2026-02-01 09:06:04,taxi_out,30.0,120.0,-0.01,0.07,0.28,57.32,390.37,477.53,55.04,66.57,0.813,14.98,none
2026-02-01 09:06:05,taxi_out,30.0,120.0,-0.02,0.1,0.26,57.41,391.01,477.39,55.06,66.58,0.808,14.99,none
2026-02-01 09:06:06,taxi_out,30.0,120.0,-0.01,0.14,0.27,57.36,391.27,475.35,55.12,66.61,0.816,15.07,none
2026-02-01 09:06:07,taxi_out,30.0,120.0,-0.04,0.12,0.2,57.27,391.39,475.82,55.09,66.62,0.816,15.07,none
2026-02-01 09:06:08,taxi_out,30.0,120.0,-0.03,0.09,0.23,57.28,390.95,477.63,55.02,66.65,0.818,15.07,none
2026-02-01 09:06:09,taxi_out,30.0,120.0,-0.04,0.08,0.21,57.31,390.45,477.73,55.11,66.57,0.827,15.07,none
2026-02-01 09:06:10,taxi_out,30.0,120.0,-0.04,0.02,0.19,57.31,390.06,477.68,55.16,66.63,0.825,15.06,none
2026-02-01 09:06:11,taxi_out,30.0,120.0,-0.04,0.02,0.15,57.27,390.71,478.71,55.12,66.63,0.823,15.0,none
2026-02-01 09:06:12,taxi_out,30.0,120.0,-0.04,0.07,0.24,57.18,391.13,477.35,55.03,66.62,0.824,14.94,none
2026-02-01 09:06:13,taxi_out,30.0,120.0,-0.05,0.02,0.27,57.18,391.55,478.01,54.99,66.67,0.825,14.95,none
2026-02-01 09:06:14,taxi_out,30.0,120.0,-0.05,0.01,0.2,57.23,391.54,476.65,54.97,66.62,0.816,14.97,none
2026-02-01 09:06:15,taxi_out,30.0,120.0,-0.07,0.01,0.15,57.28,391.57,476.55,55.02,66.63,0.817,14.99,none
2026-02-01 09:06:16,taxi_out,30.0,120.0,-0.1,0.02,0.1,57.44,391.85,477.6,55.14,66.62,0.812,15.0,none
2026-02-01 09:06:17,taxi_out,30.0,120.0,-0.1,-0.03,0.0,57.47,392.08,477.08,55.15,66.66,0.81,14.99,none
2026-02-01 09:06:18,taxi_out,30.0,120.0,-0.08,-0.03,-0.06,57.45,391.75,476.68,55.18,66.62,0.812,15.01,none
2026-02-01 09:06:19,taxi_out,30.0,120.0,-0.05,-0.02,-0.11,57.4,392.48,476.13,55.14,66.57,0.815,14.99,none
2026-02-01 09:06:20,taxi_out,30.0,120.0,-0.05,0.02,-0.17,57.36,391.75,475.9,55.09,66.57,0.814,15.0,none
2026-02-01 09:06:21,taxi_out,30.0,120.0,-0.05,-0.0,-0.17,57.35,390.88,476.72,55.01,66.61,0.811,15.0,none
2026-02-01 09:06:22,taxi_out,30.0,120.0,-0.08,0.04,-0.1,57.38,390.88,477.27,54.99,66.58,0.812,15.01,none
2026-02-01 09:06:23,taxi_out,30.0,120.0,-0.08,0.04,-0.09,57.48,391.63,477.11,55.0,66.58,0.808,14.99,none
2026-02-01 09:06:24,taxi_out,30.0,120.0,-0.09,0.02,-0.1,57.38,391.92,478.62,55.04,66.58,0.809,14.98,none
2026-02-01 09:06:25,taxi_out,30.0,120.0,-0.07,0.0,-0.1,57.42,391.96,478.96,54.99,66.59,0.811,14.96,none
2026-02-01 09:06:26,taxi_out,30.0,120.0,-0.08,-0.01,-0.1,57.48,393.03,479.65,54.98,66.6,0.8,14.94,none
2026-02-01 09:06:27,taxi_out,30.0,120.0,-0.05,-0.03,-0.06,57.5,393.4,478.34,54.92,66.53,0.799,14.9,none
2026-02-01 09:06:28,taxi_out,30.0,120.0,-0.07,-0.05,-0.18,57.63,393.38,477.08,54.96,66.6,0.802,14.91,none
2026-02-01 09:06:29,taxi_out,30.0,120.0,-0.08,-0.07,-0.31,57.66,393.03,477.47,54.97,66.54,0.805,14.88,none
2026-02-01 09:06:30,taxi_out,30.0,120.0,-0.09,-0.04,-0.27,57.59,392.66,477.03,55.06,66.51,0.81,14.87,none
2026-02-01 09:06:31,taxi_out,30.0,120.0,-0.07,-0.04,-0.26,57.64,393.01,479.71,55.07,66.44,0.806,14.81,none
2026-02-01 09:06:32,taxi_out,30.0,120.0,-0.05,-0.01,-0.17,57.54,392.88,480.3,55.1,66.47,0.805,14.81,none
2026-02-01 09:06:33,taxi_out,30.0,120.0,-0.11,0.06,-0.18,57.52,393.2,479.49,55.18,66.45,0.803,14.81,none
2026-02-01 09:06:34,taxi_out,30.0,120.0,-0.14,0.08,-0.17,57.49,393.31,480.03,55.22,66.52,0.792,14.85,none
2026-02-01 09:06:35,taxi_out,30.0,120.0,-0.15,0.15,-0.2,57.44,392.94,480.03,55.12,66.56,0.795,14.87,none
2026-02-01 09:06:36,taxi_out,30.0,120.0,-0.14,0.17,-0.21,57.47,392.36,479.66,55.14,66.58,0.797,14.88,none
2026-02-01 09:06:37,taxi_out,30.0,120.0,-0.12,0.18,-0.25,57.5,392.71,480.48,55.17,66.63,0.798,14.91,none
2026-02-01 09:06:38,taxi_out,30.0,120.0,-0.12,0.26,-0.28,57.53,392.19,482.69,55.19,66.56,0.795,14.89,none
2026-02-01 09:06:39,taxi_out,30.0,120.0,-0.11,0.31,-0.21,57.46,391.9,482.72,55.24,66.59,0.795,14.88,none
2026-02-01 09:06:40,taxi_out,30.0,120.0,-0.09,0.31,-0.13,57.47,392.62,483.83,55.2,66.53,0.791,14.9,none
2026-02-01 09:06:41,taxi_out,30.0,120.0,-0.07,0.31,-0.07,57.41,391.72,480.8,55.06,66.52,0.792,14.86,none
2026-02-01 09:06:42,taxi_out,30.0,120.0,-0.09,0.34,0.03,57.37,391.32,480.32,55.05,66.49,0.79,14.88,none
2026-02-01 09:06:43,taxi_out,30.0,120.0,-0.11,0.38,0.04,57.48,391.41,480.74,55.01,66.53,0.79,14.87,none
2026-02-01 09:06:44,taxi_out,30.0,120.0,-0.16,0.36,0.07,57.55,390.87,481.53,55.02,66.55,0.79,14.85,none
2026-02-01 09:06:45,taxi_out,30.0,120.0,-0.15,0.33,0.1,57.65,392.35,480.98,55.06,66.54,0.791,14.86,none
2026-02-01 09:06:46,taxi_out,30.0,120.0,-0.14,0.28,0.01,57.76,392.01,481.39,55.11,66.55,0.79,14.84,none
2026-02-01 09:06:47,taxi_out,30.0,120.0,-0.13,0.26,-0.01,57.77,392.61,481.76,55.07,66.65,0.783,14.81,none
2026-02-01 09:06:48,taxi_out,30.0,120.0,-0.12,0.29,-0.04,57.8,392.36,481.04,55.1,66.66,0.787,14.84,none
2026-02-01 09:06:49,taxi_out,30.0,120.0,-0.13,0.27,-0.04,57.89,392.97,481.25,55.03,66.63,0.78,14.84,none
2026-02-01 09:06:50,taxi_out,30.0,120.0,-0.14,0.3,0.01,57.83,392.89,480.49,55.1,66.62,0.779,14.84,none
2026-02-01 09:06:51,taxi_out,30.0,120.0,-0.15,0.26,0.03,57.88,392.25,479.49,55.17,66.62,0.778,14.86,none
2026-02-01 09:06:52,taxi_out,30.0,120.0,-0.13,0.23,0.05,57.82,392.13,481.16,55.14,66.73,0.778,14.85,none
2026-02-01 09:06:53,taxi_out,30.0,120.0,-0.11,0.27,0.1,57.76,391.47,481.17,55.09,66.71,0.786,14.88,none
2026-02-01 09:06:54,taxi_out,30.0,120.0,-0.11,0.33,0.22,57.72,392.01,483.86,55.02,66.73,0.788,14.9,none
2026-02-01 09:06:55,taxi_out,30.0,120.0,-0.08,0.28,0.21,57.73,392.4,484.14,54.98,66.78,0.781,14.9,none
2026-02-01 09:06:56,taxi_out,30.0,120.0,-0.13,0.22,0.19,57.77,392.24,480.72,54.99,66.87,0.778,14.95,none
2026-02-01 09:06:57,taxi_out,30.0,120.0,-0.14,0.21,0.12,57.79,392.35,480.05,55.0,66.85,0.774,14.91,none
2026-02-01 09:06:58,taxi_out,30.0,120.0,-0.12,0.16,0.13,57.81,392.51,481.19,54.95,66.83,0.774,14.92,none
2026-02-01 09:06:59,taxi_out,30.0,120.0,-0.09,0.18,0.09,57.83,392.72,482.19,54.98,66.88,0.777,14.89,none
2026-02-01 09:07:00,taxi_out,30.0,120.0,-0.09,0.18,0.13,57.89,393.12,480.61,55.03,66.83,0.779,14.87,none
2026-02-01 09:07:01,taxi_out,30.0,120.0,-0.08,0.19,0.09,57.86,393.26,478.84,55.08,66.82,0.776,14.88,none
2026-02-01 09:07:02,taxi_out,30.0,120.0,-0.05,0.2,-0.0,57.92,393.06,479.92,55.08,66.8,0.767,14.92,none
2026-02-01 09:07:03,taxi_out,30.0,120.0,-0.09,0.13,0.09,57.9,393.95,478.66,55.08,66.8,0.768,14.93,none
2026-02-01 09:07:04,taxi_out,30.0,120.0,-0.1,0.12,0.07,57.98,393.84,478.94,55.05,66.82,0.768,14.94,none
2026-02-01 09:07:05,taxi_out,30.0,120.0,-0.1,0.11,-0.01,58.0,393.57,479.06,55.0,66.84,0.772,14.88,none
2026-02-01 09:07:06,taxi_out,30.0,120.0,-0.12,0.08,0.01,57.96,393.71,477.76,55.17,66.87,0.778,14.92,none
2026-02-01 09:07:07,taxi_out,30.0,120.0,-0.1,0.06,-0.06,58.1,394.05,477.39,55.24,66.85,0.783,14.92,none
2026-02-01 09:07:08,taxi_out,30.0,120.0,-0.1,0.01,-0.05,57.98,393.99,478.46,55.19,66.86,0.779,14.94,none
2026-02-01 09:07:09,taxi_out,30.0,120.0,-0.05,-0.0,-0.0,58.04,394.64,479.6,55.12,66.89,0.78,14.97,none
2026-02-01 09:07:10,taxi_out,30.0,120.0,-0.03,0.02,0.04,58.09,393.47,479.1,55.12,66.9,0.784,14.95,none
2026-02-01 09:07:11,taxi_out,30.0,120.0,-0.03,0.05,0.17,58.03,393.91,478.46,55.13,66.89,0.786,14.98,none
2026-02-01 09:07:12,taxi_out,30.0,120.0,-0.01,0.02,0.19,58.1,393.67,477.05,55.2,66.84,0.782,15.02,none
2026-02-01 09:07:13,taxi_out,30.0,120.0,-0.03,-0.03,0.27,58.04,393.96,478.32,55.19,66.84,0.779,14.98,none
2026-02-01 09:07:14,taxi_out,30.0,120.0,-0.04,-0.01,0.21,58.05,393.67,477.63,55.24,66.9,0.784,15.03,none
2026-02-01 09:07:15,taxi_out,30.0,120.0,-0.07,-0.01,0.15,58.1,393.28,477.95,55.21,66.88,0.791,15.05,none
2026-02-01 09:07:16,taxi_out,30.0,120.0,-0.06,0.0,0.07,58.08,393.83,478.23,55.21,66.88,0.796,15.06,none
2026-02-01 09:07:17,taxi_out,30.0,120.0,-0.08,-0.0,0.1,58.19,394.01,478.99,55.19,66.86,0.791,15.06,none
2026-02-01 09:07:18,taxi_out,30.0,120.0,-0.07,-0.01,0.07,58.23,394.34,480.0,55.27,66.85,0.784,15.02,none
2026-02-01 09:07:19,taxi_out,30.0,120.0,-0.06,-0.06,0.03,58.15,394.61,477.94,55.34,66.85,0.783,15.04,none
2026-02-01 09:07:20,taxi_out,30.0,120.0,-0.11,-0.06,0.0,58.23,394.92,477.69,55.47,66.83,0.782,15.09,none
2026-02-01 09:07:21,taxi_out,30.0,120.0,-0.08,-0.02,0.02,58.16,394.79,477.71,55.39,66.81,0.785,15.05,none
2026-02-01 09:07:22,taxi_out,30.0,120.0,-0.06,-0.03,0.02,58.31,394.5,477.99,55.39,66.81,0.79,15.08,none
2026-02-01 09:07:23,taxi_out,30.0,120.0,-0.03,0.01,-0.05,58.4,394.59,477.2,55.33,66.84,0.785,15.07,none
2026-02-01 09:07:24,taxi_out,30.0,120.0,-0.06,-0.04,-0.02,58.35,394.29,477.7,55.28,66.82,0.785,15.1,none
2026-02-01 09:07:25,taxi_out,30.0,120.0,-0.06,-0.05,-0.09,58.33,394.61,478.15,55.26,66.86,0.782,15.09,none
2026-02-01 09:07:26,taxi_out,30.0,120.0,-0.09,-0.01,-0.09,58.33,394.18,480.9,55.3,66.86,0.784,15.06,none
2026-02-01 09:07:27,taxi_out,30.0,120.0,-0.14,-0.06,-0.12,58.27,394.11,480.27,55.3,66.85,0.794,15.0,none
2026-02-01 09:07:28,taxi_out,30.0,120.0,-0.09,-0.05,-0.18,58.3,393.18,480.25,55.21,66.9,0.804,15.01,none
2026-02-01 09:07:29,taxi_out,30.0,120.0,-0.1,-0.06,-0.18,58.3,393.77,482.42,55.18,66.92,0.804,15.02,none
2026-02-01 09:07:30,taxi_out,30.0,120.0,-0.1,-0.03,-0.22,58.35,393.67,482.36,55.18,66.96,0.804,15.06,none
2026-02-01 09:07:31,taxi_out,30.0,120.0,-0.1,-0.05,-0.3,58.45,393.92,484.85,55.13,66.93,0.805,15.05,none
2026-02-01 09:07:32,taxi_out,30.0,120.0,-0.11,-0.0,-0.28,58.35,393.38,484.88,54.99,66.93,0.794,14.99,none
2026-02-01 09:07:33,taxi_out,30.0,120.0,-0.08,-0.03,-0.29,58.4,393.1,485.67,55.01,66.89,0.794,15.0,none
2026-02-01 09:07:34,taxi_out,30.0,120.0,-0.11,-0.03,-0.27,58.28,392.96,485.88,54.97,66.88,0.787,15.01,none
2026-02-01 09:07:35,taxi_out,30.0,120.0,-0.1,-0.08,-0.26,58.2,392.47,486.26,54.95,66.88,0.787,15.0,none
2026-02-01 09:07:36,taxi_out,30.0,120.0,-0.11,-0.06,-0.34,58.29,393.03,485.2,55.01,66.89,0.783,15.0,none
2026-02-01 09:07:37,taxi_out,30.0,120.0,-0.14,-0.08,-0.32,58.31,393.09,485.85,55.01,66.9,0.791,15.0,none
2026-02-01 09:07:38,taxi_out,30.0,120.0,-0.13,-0.04,-0.33,58.27,392.53,485.08,54.97,66.95,0.793,15.0,none
2026-02-01 09:07:39,taxi_out,30.0,120.0,-0.09,-0.05,-0.32,58.23,392.28,485.82,54.94,66.91,0.794,15.0,none
2026-02-01 09:07:40,taxi_out,30.0,120.0,-0.07,-0.07,-0.34,58.23,393.13,487.2,54.89,66.95,0.787,15.03,none
2026-02-01 09:07:41,taxi_out,30.0,120.0,-0.05,-0.04,-0.26,58.25,392.57,487.71,54.88,66.98,0.782,15.03,none
2026-02-01 09:07:42,taxi_out,30.0,120.0,-0.06,-0.06,-0.32,58.18,392.0,487.22,54.87,66.95,0.782,15.06,none
2026-02-01 09:07:43,taxi_out,30.0,120.0,-0.09,-0.06,-0.31,58.17,392.68,486.65,54.84,66.99,0.781,15.08,none
2026-02-01 09:07:44,taxi_out,30.0,120.0,-0.1,-0.01,-0.29,58.24,392.39,487.59,54.67,67.03,0.78,15.04,none
2026-02-01 09:07:45,taxi_out,30.0,120.0,-0.1,-0.01,-0.29,58.18,391.74,485.83,54.51,67.07,0.784,15.01,none
2026-02-01 09:07:46,taxi_out,30.0,120.0,-0.11,0.01,-0.34,58.3,391.8,486.58,54.54,67.09,0.777,15.02,none
2026-02-01 09:07:47,taxi_out,30.0,120.0,-0.13,0.07,-0.33,58.25,391.47,487.06,54.56,67.1,0.778,15.02,none
2026-02-01 09:07:48,taxi_out,30.0,120.0,-0.13,0.05,-0.27,58.19,391.67,488.13,54.64,67.15,0.774,15.05,none
2026-02-01 09:07:49,taxi_out,30.0,120.0,-0.1,0.03,-0.33,58.24,392.32,485.71,54.56,67.16,0.78,15.01,none
2026-02-01 09:07:50,taxi_out,30.0,120.0,-0.11,0.01,-0.25,58.26,392.51,485.17,54.54,67.17,0.783,14.99,none
2026-02-01 09:07:51,taxi_out,30.0,120.0,-0.08,-0.06,-0.28,58.31,393.34,484.56,54.47,67.18,0.791,15.01,none
2026-02-01 09:07:52,taxi_out,30.0,120.0,-0.06,0.01,-0.23,58.31,393.65,483.33,54.5,67.22,0.791,15.02,none
2026-02-01 09:07:53,taxi_out,30.0,120.0,-0.07,-0.0,-0.19,58.41,394.18,482.22,54.55,67.22,0.78,14.95,none
2026-02-01 09:07:54,taxi_out,30.0,120.0,-0.08,-0.0,-0.22,58.41,393.35,480.39,54.55,67.19,0.782,14.91,none
2026-02-01 09:07:55,taxi_out,30.0,120.0,-0.1,-0.06,-0.18,58.34,393.62,480.01,54.65,67.19,0.786,14.92,none
2026-02-01 09:07:56,taxi_out,30.0,120.0,-0.11,-0.0,-0.07,58.31,394.39,479.29,54.6,67.2,0.786,14.92,none
2026-02-01 09:07:57,taxi_out,30.0,120.0,-0.09,-0.03,-0.1,58.33,394.29,477.64,54.68,67.15,0.792,14.96,none
2026-02-01 09:07:58,taxi_out,30.0,120.0,-0.11,-0.0,-0.0,58.4,394.3,477.45,54.77,67.2,0.796,14.94,none
2026-02-01 09:07:59,taxi_out,30.0,120.0,-0.11,0.02,-0.05,58.51,394.01,477.66,54.79,67.17,0.8,14.93,none
2026-02-01 09:08:00,taxi_out,30.0,120.0,-0.12,0.04,-0.11,58.55,394.81,478.75,54.73,67.2,0.801,14.91,none
2026-02-01 09:08:01,taxi_out,30.0,120.0,-0.12,0.02,-0.06,58.53,394.12,478.97,54.7,67.19,0.797,14.86,none
2026-02-01 09:08:02,taxi_out,30.0,120.0,-0.11,0.04,0.0,58.38,394.4,479.04,54.66,67.17,0.79,14.85,none
2026-02-01 09:08:03,taxi_out,30.0,120.0,-0.08,0.04,-0.06,58.4,395.55,479.75,54.68,67.14,0.79,14.83,none
2026-02-01 09:08:04,taxi_out,30.0,120.0,-0.09,0.06,-0.07,58.37,395.99,480.35,54.65,67.13,0.79,14.79,none
2026-02-01 09:08:05,taxi_out,30.0,120.0,-0.08,0.06,-0.05,58.39,395.19,479.96,54.64,67.13,0.789,14.75,none
2026-02-01 09:08:06,taxi_out,30.0,120.0,-0.1,0.06,-0.05,58.47,395.03,479.81,54.68,67.14,0.789,14.72,none
2026-02-01 09:08:07,taxi_out,30.0,120.0,-0.1,0.07,-0.1,58.62,395.51,479.98,54.77,67.18,0.786,14.71,none
2026-02-01 09:08:08,taxi_out,30.0,120.0,-0.09,0.03,-0.08,58.64,395.52,480.37,54.78,67.15,0.785,14.66,none
2026-02-01 09:08:09,taxi_out,30.0,120.0,-0.08,-0.0,-0.04,58.69,395.6,480.93,54.83,67.15,0.78,14.7,none
2026-02-01 09:08:10,taxi_out,30.0,120.0,-0.05,0.06,-0.01,58.61,395.92,483.36,54.81,67.11,0.776,14.71,none
2026-02-01 09:08:11,taxi_out,30.0,120.0,-0.06,0.01,0.01,58.57,395.69,484.55,54.72,67.13,0.773,14.68,none
2026-02-01 09:08:12,taxi_out,30.0,120.0,-0.06,-0.04,-0.01,58.54,395.7,484.52,54.66,67.15,0.77,14.7,none
2026-02-01 09:08:13,taxi_out,30.0,120.0,-0.05,-0.05,0.01,58.53,395.64,484.76,54.7,67.1,0.776,14.67,none
2026-02-01 09:08:14,taxi_out,30.0,120.0,-0.04,0.01,0.02,58.54,395.63,485.55,54.77,67.08,0.777,14.72,none
2026-02-01 09:08:15,taxi_out,30.0,120.0,-0.06,0.01,0.05,58.53,394.99,486.43,54.8,67.08,0.778,14.73,none
2026-02-01 09:08:16,taxi_out,30.0,120.0,-0.08,0.02,0.17,58.46,395.41,487.13,54.79,67.12,0.772,14.75,none
2026-02-01 09:08:17,taxi_out,30.0,120.0,-0.09,-0.05,0.19,58.51,395.06,488.27,54.77,67.09,0.768,14.79,none
2026-02-01 09:08:18,taxi_out,30.0,120.0,-0.06,-0.05,0.2,58.39,395.54,488.93,54.8,67.09,0.77,14.83,none
2026-02-01 09:08:19,taxi_out,30.0,120.0,-0.07,-0.06,0.25,58.38,395.51,489.12,54.85,67.06,0.774,14.86,none
2026-02-01 09:08:20,taxi_out,30.0,120.0,-0.03,-0.03,0.31,58.5,394.96,489.58,54.76,67.05,0.769,14.84,none
2026-02-01 09:08:21,taxi_out,30.0,120.0,0.01,-0.04,0.22,58.43,394.27,490.5,54.79,67.06,0.762,14.83,none
2026-02-01 09:08:22,taxi_out,30.0,120.0,0.01,-0.05,0.23,58.33,394.79,492.49,54.83,67.17,0.768,14.83,none
2026-02-01 09:08:23,taxi_out,30.0,120.0,0.0,-0.09,0.11,58.27,395.51,492.1,54.73,67.16,0.762,14.84,none
2026-02-01 09:08:24,taxi_out,30.0,120.0,-0.01,-0.08,0.11,58.31,395.63,492.51,54.81,67.17,0.761,14.85,none
2026-02-01 09:08:25,taxi_out,30.0,120.0,-0.02,-0.08,0.13,58.42,395.59,492.91,55.0,67.13,0.758,14.86,none
2026-02-01 09:08:26,taxi_out,30.0,120.0,-0.01,-0.05,0.07,58.35,395.61,494.05,54.97,67.12,0.76,14.91,none
2026-02-01 09:08:27,taxi_out,30.0,120.0,-0.0,-0.06,-0.02,58.45,395.67,495.03,55.01,67.16,0.764,14.93,none
2026-02-01 09:08:28,taxi_out,30.0,120.0,-0.0,-0.08,-0.04,58.49,394.65,494.28,54.99,67.13,0.757,14.92,none
2026-02-01 09:08:29,taxi_out,30.0,120.0,-0.02,-0.08,-0.03,58.55,395.14,494.19,55.03,67.19,0.758,14.96,none
2026-02-01 09:08:30,taxi_out,30.0,120.0,-0.05,-0.1,0.01,58.68,395.36,495.18,55.06,67.17,0.763,14.95,none
2026-02-01 09:08:31,taxi_out,30.0,120.0,-0.04,-0.09,-0.01,58.53,396.4,495.66,55.0,67.18,0.769,14.96,none
2026-02-01 09:08:32,taxi_out,30.0,120.0,-0.03,-0.09,0.03,58.44,396.56,494.99,54.93,67.13,0.775,15.01,none
2026-02-01 09:08:33,taxi_out,30.0,120.0,-0.01,-0.09,-0.02,58.44,396.19,494.17,54.9,67.17,0.772,15.1,none
2026-02-01 09:08:34,taxi_out,30.0,120.0,-0.01,-0.09,-0.07,58.48,395.9,492.21,55.02,67.19,0.779,15.06,none
2026-02-01 09:08:35,taxi_out,30.0,120.0,-0.02,-0.14,-0.07,58.57,395.82,491.09,55.08,67.24,0.778,15.03,none
2026-02-01 09:08:36,taxi_out,30.0,120.0,0.01,-0.12,-0.09,58.62,396.17,490.23,55.23,67.2,0.788,15.03,none
2026-02-01 09:08:37,taxi_out,30.0,120.0,0.04,-0.13,-0.07,58.65,396.58,489.11,55.26,67.2,0.793,15.04,none
2026-02-01 09:08:38,taxi_out,30.0,120.0,0.0,-0.07,-0.1,58.7,396.15,488.06,55.25,67.16,0.787,15.03,none
2026-02-01 09:08:39,taxi_out,30.0,120.0,-0.01,-0.07,-0.1,58.7,395.83,488.53,55.24,67.16,0.788,14.99,none
2026-02-01 09:08:40,taxi_out,30.0,120.0,0.01,-0.06,-0.2,58.76,396.38,488.56,55.21,67.18,0.785,15.07,none
2026-02-01 09:08:41,taxi_out,30.0,120.0,0.04,-0.06,-0.21,58.84,395.22,488.72,55.22,67.16,0.785,15.05,none
2026-02-01 09:08:42,taxi_out,30.0,120.0,0.04,-0.08,-0.23,58.83,395.21,488.65,55.21,67.17,0.79,15.05,none
2026-02-01 09:08:43,taxi_out,30.0,120.0,0.01,-0.04,-0.24,58.89,394.48,489.9,55.18,67.15,0.789,15.09,none
2026-02-01 09:08:44,taxi_out,30.0,120.0,0.02,0.0,-0.24,58.94,394.56,489.82,55.16,67.2,0.779,15.06,none
2026-02-01 09:08:45,taxi_out,30.0,120.0,0.02,-0.02,-0.16,58.84,394.49,490.34,55.23,67.22,0.781,15.04,none
2026-02-01 09:08:46,taxi_out,30.0,120.0,0.03,-0.03,-0.17,58.81,393.99,489.17,55.17,67.17,0.784,15.08,none
2026-02-01 09:08:47,taxi_out,30.0,120.0,0.05,0.03,-0.14,59.0,393.42,489.79,55.18,67.17,0.781,15.09,none
2026-02-01 09:08:48,taxi_out,30.0,120.0,0.06,0.06,-0.12,58.97,392.65,489.75,55.22,67.18,0.787,15.14,none
2026-02-01 09:08:49,taxi_out,30.0,120.0,0.07,0.05,-0.15,58.9,393.08,488.91,55.16,67.22,0.79,15.13,none
2026-02-01 09:08:50,taxi_out,30.0,120.0,0.04,0.1,-0.2,58.78,393.02,487.18,54.99,67.2,0.795,15.13,none
2026-02-01 09:08:51,taxi_out,30.0,120.0,0.05,0.04,-0.19,58.91,393.43,486.38,54.98,67.14,0.797,15.13,none
2026-02-01 09:08:52,taxi_out,30.0,120.0,0.04,0.03,-0.18,58.79,393.19,486.18,54.95,67.15,0.798,15.1,none
2026-02-01 09:08:53,taxi_out,30.0,120.0,0.03,0.06,-0.18,58.97,393.57,486.31,54.99,67.19,0.807,15.13,none
2026-02-01 09:08:54,taxi_out,30.0,120.0,0.03,-0.02,-0.12,59.04,393.05,486.44,54.96,67.13,0.804,15.14,none
2026-02-01 09:08:55,taxi_out,30.0,120.0,0.06,-0.0,-0.14,58.93,392.79,483.97,54.86,67.12,0.805,15.17,none
2026-02-01 09:08:56,taxi_out,30.0,120.0,0.05,-0.04,-0.1,59.01,392.78,484.89,54.84,67.18,0.8,15.17,none
2026-02-01 09:08:57,taxi_out,30.0,120.0,0.06,-0.04,-0.11,59.01,393.16,484.65,54.87,67.2,0.797,15.12,none
2026-02-01 09:08:58,taxi_out,30.0,120.0,0.05,-0.02,-0.07,59.02,392.7,485.69,54.89,67.21,0.804,15.05,none
2026-02-01 09:08:59,taxi_out,30.0,120.0,0.09,-0.03,-0.06,59.01,392.57,487.13,54.8,67.18,0.807,15.05,none
2026-02-01 09:09:00,taxi_out,30.0,120.0,0.1,-0.04,-0.1,59.04,392.61,487.27,54.85,67.13,0.814,15.04,none
2026-02-01 09:09:01,taxi_out,30.0,120.0,0.05,-0.06,-0.09,59.03,392.2,488.11,54.74,67.15,0.807,15.04,none
2026-02-01 09:09:02,taxi_out,30.0,120.0,0.04,0.02,-0.11,59.05,392.36,489.51,54.8,67.14,0.81,15.01,none
2026-02-01 09:09:03,taxi_out,30.0,120.0,0.04,0.03,-0.14,59.04,392.35,489.14,54.76,67.17,0.818,15.04,none
2026-02-01 09:09:04,taxi_out,30.0,120.0,0.01,-0.02,-0.18,59.05,393.12,487.68,54.78,67.17,0.815,15.01,none
2026-02-01 09:09:05,taxi_out,30.0,120.0,0.04,-0.01,-0.09,59.08,393.5,486.91,54.82,67.16,0.816,14.94,none
2026-02-01 09:09:06,taxi_out,30.0,120.0,0.03,-0.01,-0.17,59.14,394.28,486.04,54.86,67.14,0.82,14.94,none
2026-02-01 09:09:07,taxi_out,30.0,120.0,0.04,0.04,-0.12,58.99,394.49,484.45,54.88,67.12,0.812,14.92,none
2026-02-01 09:09:08,taxi_out,30.0,120.0,0.04,-0.01,-0.08,59.03,395.19,483.77,54.86,67.15,0.816,14.91,none
2026-02-01 09:09:09,taxi_out,30.0,120.0,0.03,-0.03,-0.15,58.99,395.41,484.16,54.91,67.1,0.828,14.94,none
2026-02-01 09:09:10,taxi_out,30.0,120.0,-0.0,0.01,-0.3,59.0,395.71,484.09,54.89,67.05,0.831,14.98,none
2026-02-01 09:09:11,taxi_out,30.0,120.0,-0.02,0.01,-0.18,59.07,396.34,484.79,54.95,67.13,0.827,14.98,none
2026-02-01 09:09:12,taxi_out,30.0,120.0,-0.04,-0.03,-0.14,59.07,397.08,483.89,54.96,67.13,0.827,14.97,none
2026-02-01 09:09:13,taxi_out,30.0,120.0,-0.08,-0.06,-0.12,59.17,397.38,484.41,54.89,67.13,0.822,14.87,none
2026-02-01 09:09:14,taxi_out,30.0,120.0,-0.09,-0.11,-0.09,59.17,396.28,484.3,54.95,67.07,0.827,14.85,none
2026-02-01 09:09:15,taxi_out,30.0,120.0,-0.05,-0.18,-0.09,59.22,396.22,485.57,54.98,67.09,0.825,14.84,none
2026-02-01 09:09:16,taxi_out,30.0,120.0,-0.06,-0.15,-0.04,59.12,396.16,486.73,54.98,67.16,0.82,14.84,none
2026-02-01 09:09:17,taxi_out,30.0,120.0,-0.05,-0.17,-0.06,59.16,396.04,485.09,55.0,67.12,0.821,14.84,none
2026-02-01 09:09:18,taxi_out,30.0,120.0,-0.05,-0.2,-0.08,58.99,396.66,486.53,54.94,67.1,0.823,14.84,none
2026-02-01 09:09:19,taxi_out,30.0,120.0,-0.03,-0.1,-0.15,58.98,396.27,486.72,54.92,67.16,0.825,14.79,none
2026-02-01 09:09:20,taxi_out,30.0,120.0,-0.01,-0.07,-0.15,59.03,396.84,487.07,55.06,67.22,0.826,14.75,none
2026-02-01 09:09:21,taxi_out,30.0,120.0,-0.03,-0.03,-0.2,59.06,396.88,486.27,55.11,67.15,0.827,14.76,none
2026-02-01 09:09:22,taxi_out,30.0,120.0,-0.03,-0.02,-0.19,59.09,397.06,487.29,55.12,67.18,0.829,14.77,none
2026-02-01 09:09:23,taxi_out,30.0,120.0,-0.02,0.03,-0.21,59.1,397.49,486.81,55.1,67.12,0.822,14.79,none
2026-02-01 09:09:24,taxi_out,30.0,120.0,-0.07,0.05,-0.24,59.04,398.01,486.65,55.12,67.16,0.817,14.83,none
2026-02-01 09:09:25,taxi_out,30.0,120.0,-0.1,0.06,-0.18,59.04,398.31,488.42,55.11,67.19,0.811,14.83,none
2026-02-01 09:09:26,taxi_out,30.0,120.0,-0.09,0.05,-0.16,59.08,398.71,488.9,55.17,67.21,0.823,14.86,none
2026-02-01 09:09:27,taxi_out,30.0,120.0,-0.1,0.0,-0.13,59.14,398.54,487.71,55.13,67.21,0.815,14.87,none
2026-02-01 09:09:28,taxi_out,30.0,120.0,-0.08,-0.02,-0.08,59.21,398.94,488.71,55.19,67.26,0.808,14.82,none
2026-02-01 09:09:29,taxi_out,30.0,120.0,-0.05,-0.01,0.01,59.26,397.47,490.65,55.12,67.24,0.807,14.86,none
